[{"title": "A86 Newtonmore - Drumgask - Closure", "lon": "-4.19005094388265", "lat": "57.0321620971644", "link": "http://m.trafficscotland.org/incidents/c104028", "date": "Mon, 12 Oct 2015 09:20:14 GMT", "desc": "A86 Closed for roadworks between Laggan and Newtonmore. Follow signed diversion and be prepared for longer than normal journey times.", "type": "incidents", "orig_link": "http://tscot.org/01c104028"}, {"title": "M74 J11 (Poneil) - J12 (Millbank) - Hazard", "lon": "-3.82241173864946", "lat": "55.5842760500379", "link": "http://m.trafficscotland.org/incidents/c104030", "date": "Mon, 12 Oct 2015 10:43:03 GMT", "desc": "M74(N) Junction 11 offslip to B7078 closed due to HGV hazard. Drivers are advised to approach with caution and use diversion.", "type": "incidents", "orig_link": "http://tscot.org/01c104030"}, {"title": "A96 Huntly - Inverurie", "lon": "-2.56061896815431", "lat": "57.3519465452098", "link": "http://m.trafficscotland.org/roadworks/c589521", "date": "Mon, 23 Feb 2015 00:00:00 GMT", "desc": "Start Date: Monday, 23 February 2015<br />End Date: Saturday, 12 November 2016", "type": "roadworks", "orig_link": "http://tscot.org/03c589521"}, {"title": "A8 M8 J8 (Baillieston) - A752", "lon": "-4.07563684887309", "lat": "55.8481499082036", "link": "http://m.trafficscotland.org/roadworks/c589818", "date": "Fri, 15 May 2015 00:00:00 GMT", "desc": "Start Date: Friday, 15 May 2015<br />End Date: Monday, 15 February 2016", "type": "roadworks", "orig_link": "http://tscot.org/03c589818"}, {"title": "M74 J4 Sth (Maryville) - J5 (Raith)", "lon": "-4.08421066112826", "lat": "55.8268762171694", "link": "http://m.trafficscotland.org/roadworks/c593350", "date": "Fri, 05 Jun 2015 00:00:00 GMT", "desc": "Start Date: Friday, 05 June 2015<br />End Date: Thursday, 25 February 2016", "type": "roadworks", "orig_link": "http://tscot.org/03c593350"}, {"title": "A830 Glenfinnan - Lochailort", "lon": "-5.55975874086366", "lat": "56.8787388711227", "link": "http://m.trafficscotland.org/roadworks/c594633", "date": "Mon, 25 May 2015 00:00:00 GMT", "desc": "Start Date: Monday, 25 May 2015<br />End Date: Friday, 11 December 2015", "type": "roadworks", "orig_link": "http://tscot.org/03c594633"}, {"title": "M74 J2a (Fullarton Road) - J3 (Carmyle)", "lon": "-4.16517344023612", "lat": "55.8348868933458", "link": "http://m.trafficscotland.org/roadworks/c599968", "date": "Tue, 14 Jul 2015 00:00:00 GMT", "desc": "Start Date: Tuesday, 14 July 2015<br />End Date: Friday, 26 February 2016<br />No reported delay", "type": "roadworks", "orig_link": "http://tscot.org/03c599968"}, {"title": "A830 Glenfinnan - Lochailort", "lon": "-5.55975874086366", "lat": "56.8787388711227", "link": "http://m.trafficscotland.org/roadworks/c601722", "date": "Mon, 29 Jun 2015 00:00:00 GMT", "desc": "Start Date: Monday, 29 June 2015<br />End Date: Friday, 01 January 2016", "type": "roadworks", "orig_link": "http://tscot.org/03c601722"}, {"title": "A8 EuroCentral - M8 J6", "lon": "-3.94628889935843", "lat": "55.8346814564024", "link": "http://m.trafficscotland.org/roadworks/c602238", "date": "Mon, 27 Jul 2015 00:00:00 GMT", "desc": "Start Date: Monday, 27 July 2015<br />End Date: Friday, 27 November 2015", "type": "roadworks", "orig_link": "http://tscot.org/03c602238"}, {"title": "A68 B6458 Fala Dam - B6368 Gilston", "lon": "-2.89482131946168", "lat": "55.8350000973434", "link": "http://m.trafficscotland.org/roadworks/c606271", "date": "Mon, 10 Aug 2015 00:00:00 GMT", "desc": "Start Date: Monday, 10 August 2015<br />End Date: Monday, 12 October 2015", "type": "roadworks", "orig_link": "http://tscot.org/03c606271"}, {"title": "A83 A814 Arrochar - B828", "lon": "-4.815878290702", "lat": "56.1988993253699", "link": "http://m.trafficscotland.org/roadworks/c606332", "date": "Mon, 14 Sep 2015 00:00:00 GMT", "desc": "Start Date: Monday, 14 September 2015<br />End Date: Friday, 18 December 2015", "type": "roadworks", "orig_link": "http://tscot.org/03c606332"}, {"title": "A828 Connel Bridge - Benderloch", "lon": "-5.33503469072856", "lat": "56.5167552214307", "link": "http://m.trafficscotland.org/roadworks/c606626", "date": "Mon, 14 Sep 2015 00:00:00 GMT", "desc": "Start Date: Monday, 14 September 2015<br />End Date: Friday, 16 October 2015", "type": "roadworks", "orig_link": "http://tscot.org/03c606626"}, {"title": "A85 A822 Gilmerton - Crieff", "lon": "-3.82300102749209", "lat": "56.3816401034507", "link": "http://m.trafficscotland.org/roadworks/c609076", "date": "Mon, 28 Sep 2015 00:00:00 GMT", "desc": "Start Date: Monday, 28 September 2015<br />End Date: Friday, 27 November 2015", "type": "roadworks", "orig_link": "http://tscot.org/03c609076"}, {"title": "A9 Dunkeld - Inveralmond", "lon": "-3.51268651361573", "lat": "56.508634461565", "link": "http://m.trafficscotland.org/roadworks/c609435", "date": "Mon, 31 Aug 2015 00:00:00 GMT", "desc": "Start Date: Monday, 31 August 2015<br />End Date: Sunday, 31 January 2016", "type": "roadworks", "orig_link": "http://tscot.org/03c609435"}, {"title": "A7 M6 J44 - Longtown (A6071)", "lon": "-2.94766343481442", "lat": "54.9658017717325", "link": "http://m.trafficscotland.org/roadworks/c611246", "date": "Mon, 07 Sep 2015 00:00:00 GMT", "desc": "Start Date: Monday, 07 September 2015<br />End Date: Thursday, 31 December 2015", "type": "roadworks", "orig_link": "http://tscot.org/03c611246"}, {"title": "A77 B7044 Ballantrae - Cairnryan", "lon": "-5.00198443870768", "lat": "55.0341342276875", "link": "http://m.trafficscotland.org/roadworks/c611294", "date": "Mon, 17 Aug 2015 00:00:00 GMT", "desc": "Start Date: Monday, 17 August 2015<br />End Date: Monday, 30 November 2015", "type": "roadworks", "orig_link": "http://tscot.org/03c611294"}, {"title": "A82 Fort William - Corran Ferry", "lon": "-5.16835487197436", "lat": "56.772944442105", "link": "http://m.trafficscotland.org/roadworks/c611579", "date": "Mon, 21 Sep 2015 00:00:00 GMT", "desc": "Start Date: Monday, 21 September 2015<br />End Date: Friday, 18 December 2015", "type": "roadworks", "orig_link": "http://tscot.org/03c611579"}, {"title": "A835 A832 - Ullapool", "lon": "-5.06319226680279", "lat": "57.8307541866839", "link": "http://m.trafficscotland.org/roadworks/c611958", "date": "Mon, 12 Oct 2015 00:00:00 GMT", "desc": "Start Date: Monday, 12 October 2015<br />End Date: Friday, 16 October 2015", "type": "roadworks", "orig_link": "http://tscot.org/03c611958"}, {"title": "A95 Aberlour - Craigellachie", "lon": "-3.2011967625978", "lat": "57.4799591861818", "link": "http://m.trafficscotland.org/roadworks/c612191", "date": "Mon, 18 May 2015 00:00:00 GMT", "desc": "Start Date: Monday, 18 May 2015<br />End Date: Friday, 27 November 2015", "type": "roadworks", "orig_link": "http://tscot.org/03c612191"}, {"title": "A90 Aberdeen(N) - B999", "lon": "-2.09048012342283", "lat": "57.1941402099712", "link": "http://m.trafficscotland.org/roadworks/c612288", "date": "Mon, 12 Oct 2015 00:00:00 GMT", "desc": "Start Date: Monday, 12 October 2015<br />End Date: Friday, 16 October 2015", "type": "roadworks", "orig_link": "http://tscot.org/03c612288"}, {"title": "A725 A775 Bellshill - M74 J5 (Raith)", "lon": "-4.04055453423975", "lat": "55.8090951193347", "link": "http://m.trafficscotland.org/roadworks/c612306", "date": "Sun, 26 Jul 2015 00:00:00 GMT", "desc": "Start Date: Sunday, 26 July 2015<br />End Date: Sunday, 25 October 2015", "type": "roadworks", "orig_link": "http://tscot.org/03c612306"}, {"title": "A725 A8 Shawhead - A775 Bellshill", "lon": "-4.03303503941331", "lat": "55.8298449406599", "link": "http://m.trafficscotland.org/roadworks/c612312", "date": "Wed, 16 Sep 2015 00:00:00 GMT", "desc": "Start Date: Wednesday, 16 September 2015<br />End Date: Sunday, 15 November 2015", "type": "roadworks", "orig_link": "http://tscot.org/03c612312"}, {"title": "A96 Keith - Huntly", "lon": "-2.89626671775291", "lat": "57.4976762708807", "link": "http://m.trafficscotland.org/roadworks/c612573", "date": "Mon, 21 Sep 2015 00:00:00 GMT", "desc": "Start Date: Monday, 21 September 2015<br />End Date: Friday, 18 December 2015", "type": "roadworks", "orig_link": "http://tscot.org/03c612573"}, {"title": "M9 J1a Kirkliston - J1 Newbridge", "lon": "-3.41111944591478", "lat": "55.9499416752744", "link": "http://m.trafficscotland.org/roadworks/c612716", "date": "Wed, 10 Jun 2015 00:00:00 GMT", "desc": "Start Date: Wednesday, 10 June 2015<br />End Date: Monday, 30 November 2015", "type": "roadworks", "orig_link": "http://tscot.org/03c612716"}, {"title": "A78 A8 Greenock - B788 Larkfield", "lon": "-4.77154916789962", "lat": "55.946883160604", "link": "http://m.trafficscotland.org/roadworks/c612748", "date": "Mon, 12 Oct 2015 00:00:00 GMT", "desc": "Start Date: Monday, 12 October 2015<br />End Date: Tuesday, 13 October 2015", "type": "roadworks", "orig_link": "http://tscot.org/03c612748"}, {"title": "M8 J3a (Bathgate) - J3 (Livingston)", "lon": "-3.5692421988413", "lat": "55.9066123027601", "link": "http://m.trafficscotland.org/roadworks/c612757", "date": "Fri, 25 Sep 2015 00:00:00 GMT", "desc": "Start Date: Friday, 25 September 2015<br />End Date: Friday, 23 October 2015", "type": "roadworks", "orig_link": "http://tscot.org/03c612757"}, {"title": "A90 A975 Longhaven - A982 Burnhaven", "lon": "-1.7926188092261", "lat": "57.4587515675629", "link": "http://m.trafficscotland.org/roadworks/c612802", "date": "Mon, 05 Oct 2015 00:00:00 GMT", "desc": "Start Date: Monday, 05 October 2015<br />End Date: Friday, 16 October 2015", "type": "roadworks", "orig_link": "http://tscot.org/03c612802"}, {"title": "A8 EuroCentral - M8 J6", "lon": "-3.94628889935843", "lat": "55.8346814564024", "link": "http://m.trafficscotland.org/roadworks/c612813", "date": "Mon, 21 Sep 2015 00:00:00 GMT", "desc": "Start Date: Monday, 21 September 2015<br />End Date: Monday, 12 October 2015", "type": "roadworks", "orig_link": "http://tscot.org/03c612813"}, {"title": "M8 J15 - J14 Fruit Market", "lon": "-4.2270044758969", "lat": "55.8660923940426", "link": "http://m.trafficscotland.org/roadworks/c613441", "date": "Mon, 21 Sep 2015 00:00:00 GMT", "desc": "Start Date: Monday, 21 September 2015<br />End Date: Thursday, 22 October 2015", "type": "roadworks", "orig_link": "http://tscot.org/03c613441"}, {"title": "A96 Huntly - Inverurie", "lon": "-2.56061896815431", "lat": "57.3519465452098", "link": "http://m.trafficscotland.org/roadworks/c613581", "date": "Wed, 24 Jun 2015 00:00:00 GMT", "desc": "Start Date: Wednesday, 24 June 2015<br />End Date: Thursday, 31 December 2015", "type": "roadworks", "orig_link": "http://tscot.org/03c613581"}, {"title": "A82 Dunain Park - Drumnadrochit", "lon": "-4.33998841771792", "lat": "57.4082090204587", "link": "http://m.trafficscotland.org/roadworks/c613922", "date": "Wed, 26 Aug 2015 00:00:00 GMT", "desc": "Start Date: Wednesday, 26 August 2015<br />End Date: Wednesday, 28 October 2015", "type": "roadworks", "orig_link": "http://tscot.org/03c613922"}, {"title": "A9 Etteridge - Wade Bridge", "lon": "-4.18602107359283", "lat": "56.9685855364369", "link": "http://m.trafficscotland.org/roadworks/c614073", "date": "Mon, 28 Sep 2015 00:00:00 GMT", "desc": "Start Date: Monday, 28 September 2015<br />End Date: Friday, 23 October 2015", "type": "roadworks", "orig_link": "http://tscot.org/03c614073"}, {"title": "A82 Invermoriston - Invergarry", "lon": "-4.69250208440978", "lat": "57.1350689205532", "link": "http://m.trafficscotland.org/roadworks/c614398", "date": "Mon, 12 Oct 2015 00:00:00 GMT", "desc": "Start Date: Monday, 12 October 2015<br />End Date: Friday, 16 October 2015", "type": "roadworks", "orig_link": "http://tscot.org/03c614398"}, {"title": "M74 J4 Sth (Maryville) - J5 (Raith)", "lon": "-4.08421066112826", "lat": "55.8268762171694", "link": "http://m.trafficscotland.org/roadworks/c614401", "date": "Fri, 02 Oct 2015 00:00:00 GMT", "desc": "Start Date: Friday, 02 October 2015<br />End Date: Friday, 23 October 2015", "type": "roadworks", "orig_link": "http://tscot.org/03c614401"}, {"title": "M74 J4 Sth (Maryville) - J5 (Raith)", "lon": "-4.08421066112826", "lat": "55.8268762171694", "link": "http://m.trafficscotland.org/roadworks/c614424", "date": "Mon, 05 Oct 2015 00:00:00 GMT", "desc": "Start Date: Monday, 05 October 2015<br />End Date: Monday, 14 December 2015<br />No reported delay.", "type": "roadworks", "orig_link": "http://tscot.org/03c614424"}, {"title": "A85 Tyndrum - B8074", "lon": "-4.82715669144688", "lat": "56.4315050566548", "link": "http://m.trafficscotland.org/roadworks/c614704", "date": "Tue, 28 Jul 2015 00:00:00 GMT", "desc": "Start Date: Tuesday, 28 July 2015<br />End Date: Saturday, 24 October 2015", "type": "roadworks", "orig_link": "http://tscot.org/03c614704"}, {"title": "A9 Wade Bridge - Dalnacardoch Lodge", "lon": "-4.12335944852966", "lat": "56.8213984879276", "link": "http://m.trafficscotland.org/roadworks/c614918", "date": "Wed, 17 Jun 2015 00:00:00 GMT", "desc": "Start Date: Wednesday, 17 June 2015<br />End Date: Thursday, 31 March 2016", "type": "roadworks", "orig_link": "http://tscot.org/03c614918"}, {"title": "A76 Carronbridge - B797 Mennock", "lon": "-3.79144807892768", "lat": "55.3116607593618", "link": "http://m.trafficscotland.org/roadworks/c615049", "date": "Mon, 28 Sep 2015 00:00:00 GMT", "desc": "Start Date: Monday, 28 September 2015<br />End Date: Thursday, 31 December 2015", "type": "roadworks", "orig_link": "http://tscot.org/03c615049"}, {"title": "A92 A912 Muirhead - A91 Windmill", "lon": "-3.13690930814752", "lat": "56.2749769366882", "link": "http://m.trafficscotland.org/roadworks/c615142", "date": "Sat, 10 Oct 2015 00:00:00 GMT", "desc": "Start Date: Saturday, 10 October 2015<br />End Date: Sunday, 25 October 2015", "type": "roadworks", "orig_link": "http://tscot.org/03c615142"}, {"title": "A7 M6 J44 - Longtown (A6071)", "lon": "-2.94766343481442", "lat": "54.9658017717325", "link": "http://m.trafficscotland.org/roadworks/c615221", "date": "Mon, 12 Oct 2015 00:00:00 GMT", "desc": "Start Date: Monday, 12 October 2015<br />End Date: Thursday, 29 October 2015", "type": "roadworks", "orig_link": "http://tscot.org/03c615221"}, {"title": "A76 A719 - A77 Kilmarnock", "lon": "-4.45127757130819", "lat": "55.5881223451589", "link": "http://m.trafficscotland.org/roadworks/c615656", "date": "Mon, 05 Oct 2015 00:00:00 GMT", "desc": "Start Date: Monday, 05 October 2015<br />End Date: Saturday, 31 October 2015", "type": "roadworks", "orig_link": "http://tscot.org/03c615656"}, {"title": "A77 B7038 Meiklewood - B7082", "lon": "-4.46847289319831", "lat": "55.6135106141304", "link": "http://m.trafficscotland.org/roadworks/c615660", "date": "Mon, 05 Oct 2015 00:00:00 GMT", "desc": "Start Date: Monday, 05 October 2015<br />End Date: Friday, 30 October 2015", "type": "roadworks", "orig_link": "http://tscot.org/03c615660"}, {"title": "A78 B746 Loans - A77 Monkton", "lon": "-4.61001214223291", "lat": "55.5302017238648", "link": "http://m.trafficscotland.org/roadworks/c615664", "date": "Mon, 05 Oct 2015 00:00:00 GMT", "desc": "Start Date: Monday, 05 October 2015<br />End Date: Friday, 30 October 2015", "type": "roadworks", "orig_link": "http://tscot.org/03c615664"}, {"title": "A96 Kintore - Aberdeen (A90)", "lon": "-2.26477337806524", "lat": "57.1965432792492", "link": "http://m.trafficscotland.org/roadworks/c615688", "date": "Mon, 12 Oct 2015 00:00:00 GMT", "desc": "Start Date: Monday, 12 October 2015<br />End Date: Monday, 12 October 2015", "type": "roadworks", "orig_link": "http://tscot.org/03c615688"}, {"title": "A83 B8001 - Tayinloan N", "lon": "-5.59342258756371", "lat": "55.7372878818613", "link": "http://m.trafficscotland.org/roadworks/c615701", "date": "Mon, 12 Oct 2015 00:00:00 GMT", "desc": "Start Date: Monday, 12 October 2015<br />End Date: Friday, 16 October 2015", "type": "roadworks", "orig_link": "http://tscot.org/03c615701"}, {"title": "A9 Loch Faskally - River Tummel Br", "lon": "-3.73817718372243", "lat": "56.6952758314868", "link": "http://m.trafficscotland.org/roadworks/c615713", "date": "Mon, 12 Oct 2015 00:00:00 GMT", "desc": "Start Date: Monday, 12 October 2015<br />End Date: Friday, 16 October 2015", "type": "roadworks", "orig_link": "http://tscot.org/03c615713"}, {"title": "A9 Brora - Lothbeg", "lon": "-3.83245624670095", "lat": "58.0433056991335", "link": "http://m.trafficscotland.org/roadworks/c615717", "date": "Mon, 12 Oct 2015 00:00:00 GMT", "desc": "Start Date: Monday, 12 October 2015<br />End Date: Monday, 12 October 2015", "type": "roadworks", "orig_link": "http://tscot.org/03c615717"}, {"title": "M90 J1 (Admiralty) - A90 Ferrytoll", "lon": "-3.40800679674249", "lat": "56.0287100877756", "link": "http://m.trafficscotland.org/roadworks/c615728", "date": "Mon, 12 Oct 2015 00:00:00 GMT", "desc": "Start Date: Monday, 12 October 2015<br />End Date: Tuesday, 13 October 2015", "type": "roadworks", "orig_link": "http://tscot.org/03c615728"}, {"title": "A95 North Aviemore - Speybridge", "lon": "-3.71220402363686", "lat": "57.2775049307759", "link": "http://m.trafficscotland.org/roadworks/c615750", "date": "Mon, 12 Oct 2015 00:00:00 GMT", "desc": "Start Date: Monday, 12 October 2015<br />End Date: Monday, 12 October 2015", "type": "roadworks", "orig_link": "http://tscot.org/03c615750"}, {"title": "A95 North Aviemore - Speybridge", "lon": "-3.71220402363686", "lat": "57.2775049307759", "link": "http://m.trafficscotland.org/roadworks/c615752", "date": "Mon, 12 Oct 2015 00:00:00 GMT", "desc": "Start Date: Monday, 12 October 2015<br />End Date: Monday, 12 October 2015", "type": "roadworks", "orig_link": "http://tscot.org/03c615752"}, {"title": "A96 Raigmore - Nairn", "lon": "-4.03261179479337", "lat": "57.5347699616666", "link": "http://m.trafficscotland.org/roadworks/c615754", "date": "Mon, 12 Oct 2015 00:00:00 GMT", "desc": "Start Date: Monday, 12 October 2015<br />End Date: Monday, 12 October 2015", "type": "roadworks", "orig_link": "http://tscot.org/03c615754"}, {"title": "A95 North Aviemore - Speybridge", "lon": "-3.71220402363686", "lat": "57.2775049307759", "link": "http://m.trafficscotland.org/roadworks/c615756", "date": "Mon, 31 Aug 2015 00:00:00 GMT", "desc": "Start Date: Monday, 31 August 2015<br />End Date: Friday, 16 October 2015", "type": "roadworks", "orig_link": "http://tscot.org/03c615756"}, {"title": "A96 Raigmore - Nairn", "lon": "-4.03261179479337", "lat": "57.5347699616666", "link": "http://m.trafficscotland.org/roadworks/c615758", "date": "Mon, 31 Aug 2015 00:00:00 GMT", "desc": "Start Date: Monday, 31 August 2015<br />End Date: Friday, 16 October 2015", "type": "roadworks", "orig_link": "http://tscot.org/03c615758"}, {"title": "A9 A862 - Dalmore", "lon": "-4.32120744186497", "lat": "57.6661730352365", "link": "http://m.trafficscotland.org/roadworks/c615785", "date": "Mon, 12 Oct 2015 00:00:00 GMT", "desc": "Start Date: Monday, 12 October 2015<br />End Date: Friday, 16 October 2015", "type": "roadworks", "orig_link": "http://tscot.org/03c615785"}, {"title": "A83 A815 - Inveraray", "lon": "-4.98348988247295", "lat": "56.2482887482932", "link": "http://m.trafficscotland.org/roadworks/c615796", "date": "Mon, 12 Oct 2015 00:00:00 GMT", "desc": "Start Date: Monday, 12 October 2015<br />End Date: Wednesday, 14 October 2015", "type": "roadworks", "orig_link": "http://tscot.org/03c615796"}, {"title": "A74(M) Paddy's Rickle - J15 Beattock", "lon": "-3.51796717562228", "lat": "55.3853282265453", "link": "http://m.trafficscotland.org/roadworks/c615800", "date": "Mon, 12 Oct 2015 00:00:00 GMT", "desc": "Start Date: Monday, 12 October 2015<br />End Date: Monday, 12 October 2015", "type": "roadworks", "orig_link": "http://tscot.org/03c615800"}, {"title": "A83 A815 - Inveraray", "lon": "-4.98348988247295", "lat": "56.2482887482932", "link": "http://m.trafficscotland.org/roadworks/c615801", "date": "Mon, 12 Oct 2015 00:00:00 GMT", "desc": "Start Date: Monday, 12 October 2015<br />End Date: Monday, 12 October 2015", "type": "roadworks", "orig_link": "http://tscot.org/03c615801"}, {"title": "A83 Inveraray - Furnace", "lon": "-5.12329665349408", "lat": "56.1997360387863", "link": "http://m.trafficscotland.org/roadworks/c615802", "date": "Mon, 12 Oct 2015 00:00:00 GMT", "desc": "Start Date: Monday, 12 October 2015<br />End Date: Monday, 12 October 2015", "type": "roadworks", "orig_link": "http://tscot.org/03c615802"}, {"title": "A83 Lochgair - Lochgilphead", "lon": "-5.36943486627081", "lat": "56.0179909200506", "link": "http://m.trafficscotland.org/roadworks/c615803", "date": "Mon, 12 Oct 2015 00:00:00 GMT", "desc": "Start Date: Monday, 12 October 2015<br />End Date: Monday, 12 October 2015", "type": "roadworks", "orig_link": "http://tscot.org/03c615803"}, {"title": "A90 B9119 - Hill of Rubislaw", "lon": "-2.14666677335528", "lat": "57.1421294068877", "link": "http://m.trafficscotland.org/roadworks/c615813", "date": "Mon, 12 Oct 2015 00:00:00 GMT", "desc": "Start Date: Monday, 12 October 2015<br />End Date: Monday, 12 October 2015", "type": "roadworks", "orig_link": "http://tscot.org/03c615813"}, {"title": "A83 Lochgilphead - B8024", "lon": "-5.45233645652982", "lat": "56.0064353099989", "link": "http://m.trafficscotland.org/roadworks/c615827", "date": "Mon, 12 Oct 2015 00:00:00 GMT", "desc": "Start Date: Monday, 12 October 2015<br />End Date: Monday, 12 October 2015", "type": "roadworks", "orig_link": "http://tscot.org/03c615827"}, {"title": "A90 A923 Lochee - B960 Dens Road", "lon": "-3.03216481542443", "lat": "56.4785624089151", "link": "http://m.trafficscotland.org/roadworks/c615837", "date": "Sun, 11 Oct 2015 00:00:00 GMT", "desc": "Start Date: Sunday, 11 October 2015<br />End Date: Friday, 16 October 2015", "type": "roadworks", "orig_link": "http://tscot.org/03c615837"}, {"title": "A828 Appin - Duror", "lon": "-5.36632633408448", "lat": "56.5935387653462", "link": "http://m.trafficscotland.org/roadworks/c615838", "date": "Mon, 12 Oct 2015 00:00:00 GMT", "desc": "Start Date: Monday, 12 October 2015<br />End Date: Tuesday, 13 October 2015", "type": "roadworks", "orig_link": "http://tscot.org/03c615838"}, {"title": "A9 Blackford - Greenloaning", "lon": "-3.83333143609823", "lat": "56.2550819083752", "link": "http://m.trafficscotland.org/roadworks/c615843", "date": "Mon, 12 Oct 2015 00:00:00 GMT", "desc": "Start Date: Monday, 12 October 2015<br />End Date: Friday, 16 October 2015", "type": "roadworks", "orig_link": "http://tscot.org/03c615843"}, {"title": "A90 St Madoes - B953 Inchture", "lon": "-3.27149120973514", "lat": "56.3957833038128", "link": "http://m.trafficscotland.org/roadworks/c615844", "date": "Mon, 12 Oct 2015 00:00:00 GMT", "desc": "Start Date: Monday, 12 October 2015<br />End Date: Friday, 16 October 2015", "type": "roadworks", "orig_link": "http://tscot.org/03c615844"}, {"title": "A8 EuroCentral - M8 J6", "lon": "-3.94628889935843", "lat": "55.8346814564024", "link": "http://m.trafficscotland.org/roadworks/c615856", "date": "Mon, 12 Oct 2015 00:00:00 GMT", "desc": "Start Date: Monday, 12 October 2015<br />End Date: Friday, 16 October 2015", "type": "roadworks", "orig_link": "http://tscot.org/03c615856"}, {"title": "A90 Ellon(S) - Ellon(N)", "lon": "-2.04861689108012", "lat": "57.357866514493", "link": "http://m.trafficscotland.org/roadworks/c615859", "date": "Mon, 12 Oct 2015 00:00:00 GMT", "desc": "Start Date: Monday, 12 October 2015<br />End Date: Tuesday, 13 October 2015", "type": "roadworks", "orig_link": "http://tscot.org/03c615859"}, {"title": "M73 J2 (Bailston) - J1 (Maryville)", "lon": "-4.09430827129117", "lat": "55.84215353815", "link": "http://m.trafficscotland.org/roadworks/c615863", "date": "Mon, 12 Oct 2015 00:00:00 GMT", "desc": "Start Date: Monday, 12 October 2015<br />End Date: Friday, 16 October 2015", "type": "roadworks", "orig_link": "http://tscot.org/03c615863"}, {"title": "M90 J6(Kinross) - J5(Gairney Bridge)", "lon": "-3.41871475982118", "lat": "56.1865895266447", "link": "http://m.trafficscotland.org/roadworks/c615870", "date": "Fri, 09 Oct 2015 00:00:00 GMT", "desc": "Start Date: Friday, 09 October 2015<br />End Date: Saturday, 17 October 2015", "type": "roadworks", "orig_link": "http://tscot.org/03c615870"}, {"title": "A87 A851 - A863 Sligachan", "lon": "-6.02385506836409", "lat": "57.2856467355479", "link": "http://m.trafficscotland.org/roadworks/c615871", "date": "Mon, 12 Oct 2015 00:00:00 GMT", "desc": "Start Date: Monday, 12 October 2015<br />End Date: Wednesday, 14 October 2015", "type": "roadworks", "orig_link": "http://tscot.org/03c615871"}, {"title": "A96 Fochabers - Keith", "lon": "-3.02590189885381", "lat": "57.5751915327742", "link": "http://m.trafficscotland.org/roadworks/c615879", "date": "Mon, 12 Oct 2015 00:00:00 GMT", "desc": "Start Date: Monday, 12 October 2015<br />End Date: Friday, 16 October 2015", "type": "roadworks", "orig_link": "http://tscot.org/03c615879"}, {"title": "M73 J2 (Bailston) - J1 (Maryville)", "lon": "-4.09430827129117", "lat": "55.84215353815", "link": "http://m.trafficscotland.org/roadworks/c615885", "date": "Mon, 12 Oct 2015 00:00:00 GMT", "desc": "Start Date: Monday, 12 October 2015<br />End Date: Saturday, 17 October 2015", "type": "roadworks", "orig_link": "http://tscot.org/03c615885"}, {"title": "A737 M8 J29 St James - A737", "lon": "-4.42756550162139", "lat": "55.8625855936333", "link": "http://m.trafficscotland.org/roadworks/c615891", "date": "Mon, 12 Oct 2015 00:00:00 GMT", "desc": "Start Date: Monday, 12 October 2015<br />End Date: Friday, 16 October 2015", "type": "roadworks", "orig_link": "http://tscot.org/03c615891"}, {"title": "A9 Tain - A836", "lon": "-4.07797122097201", "lat": "57.8219573859458", "link": "http://m.trafficscotland.org/roadworks/c615904", "date": "Thu, 08 Oct 2015 00:00:00 GMT", "desc": "Start Date: Thursday, 08 October 2015<br />End Date: Wednesday, 14 October 2015", "type": "roadworks", "orig_link": "http://tscot.org/03c615904"}, {"title": "A9 Helmsdale - Newport", "lon": "-3.56033352238663", "lat": "58.1629579758481", "link": "http://m.trafficscotland.org/roadworks/c615907", "date": "Mon, 12 Oct 2015 00:00:00 GMT", "desc": "Start Date: Monday, 12 October 2015<br />End Date: Friday, 16 October 2015", "type": "roadworks", "orig_link": "http://tscot.org/03c615907"}, {"title": "A972 Pitkerro Road - A90 Forfar Road", "lon": "-2.94660996844309", "lat": "56.4794778242618", "link": "http://m.trafficscotland.org/roadworks/c615910", "date": "Sun, 04 Oct 2015 00:00:00 GMT", "desc": "Start Date: Sunday, 04 October 2015<br />End Date: Friday, 16 October 2015", "type": "roadworks", "orig_link": "http://tscot.org/03c615910"}, {"title": "A85 A9 Perth - Methven", "lon": "-3.53249948351314", "lat": "56.4084305415656", "link": "http://m.trafficscotland.org/roadworks/c615930", "date": "Mon, 12 Oct 2015 00:00:00 GMT", "desc": "Start Date: Monday, 12 October 2015<br />End Date: Friday, 16 October 2015", "type": "roadworks", "orig_link": "http://tscot.org/03c615930"}, {"title": "A85 Lochearnhead - A827", "lon": "-4.31743995571975", "lat": "56.4103444005773", "link": "http://m.trafficscotland.org/roadworks/c615938", "date": "Mon, 12 Oct 2015 00:00:00 GMT", "desc": "Start Date: Monday, 12 October 2015<br />End Date: Friday, 16 October 2015", "type": "roadworks", "orig_link": "http://tscot.org/03c615938"}, {"title": "A68 A697 Carfraemill-B6362(N) Lauder", "lon": "-2.76942277124333", "lat": "55.7427608735658", "link": "http://m.trafficscotland.org/roadworks/c615985", "date": "Mon, 12 Oct 2015 00:00:00 GMT", "desc": "Start Date: Monday, 12 October 2015<br />End Date: Wednesday, 14 October 2015", "type": "roadworks", "orig_link": "http://tscot.org/03c615985"}, {"title": "A9 Lynwilg - A86 Overpass", "lon": "-3.93785976586654", "lat": "57.1317160346234", "link": "http://m.trafficscotland.org/roadworks/c616017", "date": "Mon, 10 Aug 2015 00:00:00 GMT", "desc": "Start Date: Monday, 10 August 2015<br />End Date: Friday, 30 June 2017", "type": "roadworks", "orig_link": "http://tscot.org/03c616017"}, {"title": "A87 Invergarry - A887", "lon": "-4.92792603337726", "lat": "57.0817141143928", "link": "http://m.trafficscotland.org/roadworks/c616149", "date": "Mon, 12 Oct 2015 00:00:00 GMT", "desc": "Start Date: Monday, 12 October 2015<br />End Date: Monday, 12 October 2015", "type": "roadworks", "orig_link": "http://tscot.org/03c616149"}, {"title": "A9 Broxden - Cairnie Brae", "lon": "-3.53956802809219", "lat": "56.3723655909641", "link": "http://m.trafficscotland.org/roadworks/c616197", "date": "Mon, 12 Oct 2015 00:00:00 GMT", "desc": "Start Date: Monday, 12 October 2015<br />End Date: Friday, 16 October 2015", "type": "roadworks", "orig_link": "http://tscot.org/03c616197"}, {"title": "A87 A851 - A863 Sligachan", "lon": "-6.02385506836409", "lat": "57.2856467355479", "link": "http://m.trafficscotland.org/roadworks/c616944", "date": "Tue, 06 Oct 2015 00:00:00 GMT", "desc": "Start Date: Tuesday, 06 October 2015<br />End Date: Friday, 16 October 2015", "type": "roadworks", "orig_link": "http://tscot.org/03c616944"}, {"title": "A830 A861 Kinlocheil - Glenfinnan", "lon": "-5.41215005174251", "lat": "56.857744666111", "link": "http://m.trafficscotland.org/roadworks/c616952", "date": "Mon, 28 Sep 2015 00:00:00 GMT", "desc": "Start Date: Monday, 28 September 2015<br />End Date: Friday, 16 October 2015", "type": "roadworks", "orig_link": "http://tscot.org/03c616952"}, {"title": "A96 Kintore - Aberdeen (A90)", "lon": "-2.26477337806524", "lat": "57.1965432792492", "link": "http://m.trafficscotland.org/roadworks/c616962", "date": "Mon, 07 Sep 2015 00:00:00 GMT", "desc": "Start Date: Monday, 07 September 2015<br />End Date: Sunday, 18 October 2015", "type": "roadworks", "orig_link": "http://tscot.org/03c616962"}, {"title": "A85 St Fillans - Lochearnhead", "lon": "-4.19336482393411", "lat": "56.3931542447105", "link": "http://m.trafficscotland.org/roadworks/c616985", "date": "Fri, 09 Oct 2015 00:00:00 GMT", "desc": "Start Date: Friday, 09 October 2015<br />End Date: Tuesday, 13 October 2015", "type": "roadworks", "orig_link": "http://tscot.org/03c616985"}, {"title": "A82 Luss - A817", "lon": "-4.64015744336506", "lat": "56.0783561423461", "link": "http://m.trafficscotland.org/roadworks/c617010", "date": "Sun, 27 Sep 2015 00:00:00 GMT", "desc": "Start Date: Sunday, 27 September 2015<br />End Date: Friday, 16 October 2015", "type": "roadworks", "orig_link": "http://tscot.org/03c617010"}, {"title": "A9 Wade Bridge - Dalnacardoch Lodge", "lon": "-4.12335944852966", "lat": "56.8213984879276", "link": "http://m.trafficscotland.org/roadworks/c617021", "date": "Mon, 14 Sep 2015 00:00:00 GMT", "desc": "Start Date: Monday, 14 September 2015<br />End Date: Friday, 30 October 2015", "type": "roadworks", "orig_link": "http://tscot.org/03c617021"}, {"title": "A84 A873 - Doune", "lon": "-4.06558750659365", "lat": "56.1726456461518", "link": "http://m.trafficscotland.org/roadworks/c617026", "date": "Tue, 06 Oct 2015 00:00:00 GMT", "desc": "Start Date: Tuesday, 06 October 2015<br />End Date: Monday, 12 October 2015", "type": "roadworks", "orig_link": "http://tscot.org/03c617026"}, {"title": "A82 Spean Bridge - A830", "lon": "-5.00460342987066", "lat": "56.8665339808704", "link": "http://m.trafficscotland.org/roadworks/c617035", "date": "Mon, 05 Oct 2015 00:00:00 GMT", "desc": "Start Date: Monday, 05 October 2015<br />End Date: Friday, 23 October 2015", "type": "roadworks", "orig_link": "http://tscot.org/03c617035"}, {"title": "A85 St Fillans - Lochearnhead", "lon": "-4.19336482393411", "lat": "56.3931542447105", "link": "http://m.trafficscotland.org/roadworks/c617070", "date": "Mon, 05 Oct 2015 00:00:00 GMT", "desc": "Start Date: Monday, 05 October 2015<br />End Date: Friday, 16 October 2015", "type": "roadworks", "orig_link": "http://tscot.org/03c617070"}, {"title": "A82 Ardlui - Tarbet", "lon": "-4.71616265224896", "lat": "56.2455060348792", "link": "http://m.trafficscotland.org/roadworks/c617071", "date": "Wed, 07 Oct 2015 00:00:00 GMT", "desc": "Start Date: Wednesday, 07 October 2015<br />End Date: Friday, 16 October 2015", "type": "roadworks", "orig_link": "http://tscot.org/03c617071"}, {"title": "A82 Invermoriston - Invergarry", "lon": "-4.69250208440978", "lat": "57.1350689205532", "link": "http://m.trafficscotland.org/roadworks/c617080", "date": "Sun, 11 Oct 2015 00:00:00 GMT", "desc": "Start Date: Sunday, 11 October 2015<br />End Date: Friday, 23 October 2015", "type": "roadworks", "orig_link": "http://tscot.org/03c617080"}, {"title": "A87 A851 - A863 Sligachan", "lon": "-6.02385506836409", "lat": "57.2856467355479", "link": "http://m.trafficscotland.org/roadworks/c617085", "date": "Fri, 09 Oct 2015 00:00:00 GMT", "desc": "Start Date: Friday, 09 October 2015<br />End Date: Tuesday, 13 October 2015", "type": "roadworks", "orig_link": "http://tscot.org/03c617085"}, {"title": "A86 Newtonmore - Drumgask", "lon": "-4.19005094388265", "lat": "57.0321620971644", "link": "http://m.trafficscotland.org/roadworks/c617096", "date": "Mon, 12 Oct 2015 00:00:00 GMT", "desc": "Start Date: Monday, 12 October 2015<br />End Date: Sunday, 18 October 2015", "type": "roadworks", "orig_link": "http://tscot.org/03c617096"}, {"title": "A96 Kintore - Aberdeen (A90)", "lon": "-2.26477337806524", "lat": "57.1965432792492", "link": "http://m.trafficscotland.org/roadworks/c617099", "date": "Fri, 21 Aug 2015 00:00:00 GMT", "desc": "Start Date: Friday, 21 August 2015<br />End Date: Monday, 30 November 2015", "type": "roadworks", "orig_link": "http://tscot.org/03c617099"}, {"title": "A96 at Inveramsay Bridge", "lon": "-2.44216853980507", "lat": "57.3192718497584", "link": "http://m.trafficscotland.org/roadworks/s12974", "date": "Wed, 25 Mar 2015 00:00:00 GMT", "desc": "Start Date: Wednesday, 25 March 2015<br />End Date: Monday, 28 March 2016", "type": "roadworks", "orig_link": "http://tscot.org/03s12974"}, {"title": "A74(M)/M74 between Junction 22 (Gretna) and Junction 12 (Millbank)", "lon": "-3.76400967836141", "lat": "55.5255925311655", "link": "http://m.trafficscotland.org/roadworks/s2144", "date": "Sat, 30 Jun 2012 00:00:00 GMT", "desc": "Start Date: Saturday, 30 June 2012<br />End Date: Friday, 30 June 2017", "type": "roadworks", "orig_link": "http://tscot.org/03s2144"}]